$GPRMC,054919.591,V,3554.928,N,08202.498,W,70.1,2.32,220521,,E*44
$GPGGA,054920.591,3554.928,N,08202.498,W,0,00,,,M,,M,,*5F
$GPGLL,3554.928,N,08202.498,W,054921.591,V*3E
$GPVTG,2.32,T,,M,70.1,N,129.8,K*67
$GPRMC,054923.591,V,3554.927,N,08202.499,W,75.1,2.39,220521,,E*4D
$GPGGA,054924.591,3554.927,N,08202.499,W,0,00,,,M,,M,,*55
$GPGLL,3554.927,N,08202.499,W,054925.591,V*34
$GPVTG,2.39,T,,M,75.1,N,139.2,K*62
$GPRMC,054927.591,V,3554.925,N,08202.500,W,81.1,2.50,220521,,E*4E
$GPGGA,054928.591,3554.925,N,08202.500,W,0,00,,,M,,M,,*5A
$GPGLL,3554.925,N,08202.500,W,054929.591,V*3B
$GPVTG,2.50,T,,M,81.1,N,150.2,K*69
$GPRMC,054931.591,V,3554.924,N,08202.502,W,43.5,2.48,220521,,E*49
$GPGGA,054932.591,3554.924,N,08202.502,W,0,00,,,M,,M,,*52
$GPGLL,3554.924,N,08202.502,W,054933.591,V*33
$GPVTG,2.48,T,,M,43.5,N,80.6,K*52
$GPRMC,054935.591,V,3554.923,N,08202.503,W,38.8,2.47,220521,,E*45
$GPGGA,054936.591,3554.923,N,08202.503,W,0,00,,,M,,M,,*50
$GPGLL,3554.923,N,08202.503,W,054937.591,V*31
$GPVTG,2.47,T,,M,38.8,N,71.9,K*5D
$GPRMC,054939.591,V,3554.922,N,08202.505,W,41.1,2.81,220521,,E*43
$GPGGA,054940.591,3554.922,N,08202.505,W,0,00,,,M,,M,,*56
$GPGLL,3554.922,N,08202.505,W,054941.591,V*37
$GPVTG,2.81,T,,M,41.1,N,76.2,K*5C
$GPRMC,054943.591,V,3554.922,N,08202.506,W,27.0,2.91,220521,,E*4D
$GPGGA,054944.591,3554.922,N,08202.506,W,0,00,,,M,,M,,*51
$GPGLL,3554.922,N,08202.506,W,054945.591,V*30
$GPVTG,2.91,T,,M,27.0,N,50.0,K*5A
$GPRMC,054947.591,V,3554.922,N,08202.508,W,32.9,2.93,220521,,E*48
$GPGGA,054948.591,3554.922,N,08202.508,W,0,00,,,M,,M,,*53
$GPGLL,3554.922,N,08202.508,W,054949.591,V*32
$GPVTG,2.93,T,,M,32.9,N,60.8,K*5E
$GPRMC,054951.591,V,3554.922,N,08202.510,W,74.7,3.01,220521,,E*40
$GPGGA,054952.591,3554.922,N,08202.510,W,0,00,,,M,,M,,*51
$GPGLL,3554.922,N,08202.510,W,054953.591,V*30
$GPVTG,3.01,T,,M,74.7,N,138.3,K*6F
$GPRMC,054955.591,V,3554.922,N,08202.512,W,71.1,3.02,220521,,E*46
$GPGGA,054956.591,3554.922,N,08202.512,W,0,00,,,M,,M,,*57
$GPGLL,3554.922,N,08202.512,W,054957.591,V*36
$GPVTG,3.02,T,,M,71.1,N,131.7,K*62
$GPRMC,054959.591,V,3554.922,N,08202.514,W,90.2,2.99,220521,,E*43
$GPGGA,055000.591,3554.922,N,08202.514,W,0,00,,,M,,M,,*5A
$GPGLL,3554.922,N,08202.514,W,055001.591,V*3B
$GPVTG,2.99,T,,M,90.2,N,167.1,K*68
$GPRMC,055003.591,V,3554.922,N,08202.515,W,8.1,3.03,220521,,E*75
$GPGGA,055004.591,3554.922,N,08202.515,W,0,00,,,M,,M,,*5F
$GPGLL,3554.922,N,08202.515,W,055005.591,V*3E
$GPVTG,3.03,T,,M,8.1,N,15.0,K*6D
$GPRMC,055007.591,V,3554.922,N,08202.517,W,35.1,2.96,220521,,E*40
$GPGGA,055008.591,3554.922,N,08202.517,W,0,00,,,M,,M,,*51
$GPGLL,3554.922,N,08202.517,W,055009.591,V*30
$GPVTG,2.96,T,,M,35.1,N,65.0,K*59
$GPRMC,055011.591,V,3554.922,N,08202.519,W,16.1,2.95,220521,,E*4B
$GPGGA,055012.591,3554.922,N,08202.519,W,0,00,,,M,,M,,*54
$GPGLL,3554.922,N,08202.519,W,055013.591,V*35
$GPVTG,2.95,T,,M,16.1,N,29.8,K*5B
$GPRMC,055015.591,V,3554.921,N,08202.521,W,1.8,2.84,220521,,E*78
$GPGGA,055016.591,3554.921,N,08202.521,W,0,00,,,M,,M,,*58
$GPGLL,3554.921,N,08202.521,W,055017.591,V*39
$GPVTG,2.84,T,,M,1.8,N,3.4,K*50
$GPRMC,055019.591,V,3554.921,N,08202.522,W,66.1,2.84,220521,,E*4F
$GPGGA,055020.591,3554.921,N,08202.522,W,0,00,,,M,,M,,*5E
$GPGLL,3554.921,N,08202.522,W,055021.591,V*3F
$GPVTG,2.84,T,,M,66.1,N,122.4,K*6A
$GPRMC,055023.591,V,3554.921,N,08202.524,W,99.0,2.92,220521,,E*46
$GPGGA,055024.591,3554.921,N,08202.524,W,0,00,,,M,,M,,*5C
$GPGLL,3554.921,N,08202.524,W,055025.591,V*3D
$GPVTG,2.92,T,,M,99.0,N,183.3,K*60
$GPRMC,055027.591,V,3554.920,N,08202.526,W,37.0,2.90,220521,,E*47
$GPGGA,055028.591,3554.920,N,08202.526,W,0,00,,,M,,M,,*53
$GPGLL,3554.920,N,08202.526,W,055029.591,V*32
$GPVTG,2.90,T,,M,37.0,N,68.6,K*57
$GPRMC,055031.591,V,3554.919,N,08202.527,W,45.8,2.52,220521,,E*48
$GPGGA,055032.591,3554.919,N,08202.527,W,0,00,,,M,,M,,*53
$GPGLL,3554.919,N,08202.527,W,055033.591,V*32
$GPVTG,2.52,T,,M,45.8,N,84.8,K*58
$GPRMC,055035.591,V,3554.918,N,08202.529,W,13.6,2.56,220521,,E*4A
$GPGGA,055036.591,3554.918,N,08202.529,W,0,00,,,M,,M,,*58
$GPGLL,3554.918,N,08202.529,W,055037.591,V*39
$GPVTG,2.56,T,,M,13.6,N,25.2,K*50
$GPRMC,055039.591,V,3554.917,N,08202.530,W,6.4,2.60,220521,,E*72
$GPGGA,055040.591,3554.917,N,08202.530,W,0,00,,,M,,M,,*5E
$GPGLL,3554.917,N,08202.530,W,055041.591,V*3F
$GPVTG,2.60,T,,M,6.4,N,11.9,K*6F
$GPRMC,055043.591,V,3554.916,N,08202.532,W,29.9,2.63,220521,,E*4F
$GPGGA,055044.591,3554.916,N,08202.532,W,0,00,,,M,,M,,*59
$GPGLL,3554.916,N,08202.532,W,055045.591,V*38
$GPVTG,2.63,T,,M,29.9,N,55.4,K*51
$GPRMC,055047.591,V,3554.915,N,08202.533,W,9.8,2.65,220521,,E*7C
$GPGGA,055048.591,3554.915,N,08202.533,W,0,00,,,M,,M,,*57
$GPGLL,3554.915,N,08202.533,W,055049.591,V*36
$GPVTG,2.65,T,,M,9.8,N,18.1,K*68
$GPRMC,055051.591,V,3554.914,N,08202.535,W,63.4,2.71,220521,,E*49
$GPGGA,055052.591,3554.914,N,08202.535,W,0,00,,,M,,M,,*5B
$GPGLL,3554.914,N,08202.535,W,055053.591,V*3A
$GPVTG,2.71,T,,M,63.4,N,117.5,K*67
$GPRMC,055055.591,V,3554.914,N,08202.537,W,89.8,2.78,220521,,E*4E
$GPGGA,055056.591,3554.914,N,08202.537,W,0,00,,,M,,M,,*5D
$GPGLL,3554.914,N,08202.537,W,055057.591,V*3C
$GPVTG,2.78,T,,M,89.8,N,166.3,K*66
$GPRMC,055059.591,V,3554.913,N,08202.538,W,78.3,2.70,220521,,E*47
$GPGGA,055100.591,3554.913,N,08202.538,W,0,00,,,M,,M,,*57
$GPGLL,3554.913,N,08202.538,W,055101.591,V*36
$GPVTG,2.70,T,,M,78.3,N,144.9,K*61
$GPRMC,055103.591,V,3554.912,N,08202.540,W,72.4,2.64,220521,,E*4F
$GPGGA,055104.591,3554.912,N,08202.540,W,0,00,,,M,,M,,*5D
$GPGLL,3554.912,N,08202.540,W,055105.591,V*3C
$GPVTG,2.64,T,,M,72.4,N,134.0,K*67
$GPRMC,055107.591,V,3554.911,N,08202.541,W,25.2,2.66,220521,,E*4F
$GPGGA,055108.591,3554.911,N,08202.541,W,0,00,,,M,,M,,*53
$GPGLL,3554.911,N,08202.541,W,055109.591,V*32
$GPVTG,2.66,T,,M,25.2,N,46.6,K*53
$GPRMC,055111.591,V,3554.910,N,08202.543,W,18.8,2.58,220521,,E*42
$GPGGA,055112.591,3554.910,N,08202.543,W,0,00,,,M,,M,,*5B
$GPGLL,3554.910,N,08202.543,W,055113.591,V*3A
$GPVTG,2.58,T,,M,18.8,N,34.8,K*51
$GPRMC,055115.591,V,3554.909,N,08202.544,W,29.7,2.58,220521,,E*44
$GPGGA,055116.591,3554.909,N,08202.544,W,0,00,,,M,,M,,*50
$GPGLL,3554.909,N,08202.544,W,055117.591,V*31
$GPVTG,2.58,T,,M,29.7,N,55.1,K*52
$GPRMC,055119.591,V,3554.907,N,08202.545,W,93.3,2.52,220521,,E*48
$GPGGA,055120.591,3554.907,N,08202.545,W,0,00,,,M,,M,,*5A
$GPGLL,3554.907,N,08202.545,W,055121.591,V*3B
$GPVTG,2.52,T,,M,93.3,N,172.7,K*6F
$GPRMC,055123.591,V,3554.906,N,08202.547,W,24.1,2.56,220521,,E*48
$GPGGA,055124.591,3554.906,N,08202.547,W,0,00,,,M,,M,,*5D
$GPGLL,3554.906,N,08202.547,W,055125.591,V*3C
$GPVTG,2.56,T,,M,24.1,N,44.6,K*50
$GPRMC,055127.591,V,3554.905,N,08202.548,W,91.1,2.51,220521,,E*49
$GPGGA,055128.591,3554.905,N,08202.548,W,0,00,,,M,,M,,*5D
$GPGLL,3554.905,N,08202.548,W,055129.591,V*3C
$GPVTG,2.51,T,,M,91.1,N,168.7,K*67
$GPRMC,055131.591,V,3554.904,N,08202.549,W,35.3,2.52,220521,,E*41
$GPGGA,055132.591,3554.904,N,08202.549,W,0,00,,,M,,M,,*56
$GPGLL,3554.904,N,08202.549,W,055133.591,V*37
$GPVTG,2.52,T,,M,35.3,N,65.4,K*57
$GPRMC,055135.591,V,3554.903,N,08202.551,W,21.1,2.54,220521,,E*4A
$GPGGA,055136.591,3554.903,N,08202.551,W,0,00,,,M,,M,,*5C
$GPGLL,3554.903,N,08202.551,W,055137.591,V*3D
$GPVTG,2.54,T,,M,21.1,N,39.1,K*5A
$GPRMC,055139.591,V,3554.901,N,08202.552,W,12.4,2.58,220521,,E*4E
$GPGGA,055140.591,3554.901,N,08202.552,W,0,00,,,M,,M,,*5C
$GPGLL,3554.901,N,08202.552,W,055141.591,V*3D
$GPVTG,2.58,T,,M,12.4,N,22.9,K*51
$GPRMC,055143.591,V,3554.900,N,08202.554,W,47.2,2.59,220521,,E*43
$GPGGA,055144.591,3554.900,N,08202.554,W,0,00,,,M,,M,,*5F
$GPGLL,3554.900,N,08202.554,W,055145.591,V*3E
$GPVTG,2.59,T,,M,47.2,N,87.5,K*55
$GPRMC,055147.591,V,3554.899,N,08202.555,W,28.6,2.53,220521,,E*40
$GPGGA,055148.591,3554.899,N,08202.555,W,0,00,,,M,,M,,*53
$GPGLL,3554.899,N,08202.555,W,055149.591,V*32
$GPVTG,2.53,T,,M,28.6,N,53.0,K*5E
$GPRMC,055151.591,V,3554.898,N,08202.556,W,62.1,2.48,220521,,E*46
$GPGGA,055152.591,3554.898,N,08202.556,W,0,00,,,M,,M,,*5A
$GPGLL,3554.898,N,08202.556,W,055153.591,V*3B
$GPVTG,2.48,T,,M,62.1,N,115.0,K*6E
$GPRMC,055155.591,V,3554.896,N,08202.557,W,3.5,2.46,220521,,E*70
$GPGGA,055156.591,3554.896,N,08202.557,W,0,00,,,M,,M,,*51
$GPGLL,3554.896,N,08202.557,W,055157.591,V*30
$GPVTG,2.46,T,,M,3.5,N,6.5,K*55
$GPRMC,055159.591,V,3554.895,N,08202.558,W,86.0,2.44,220521,,E*4A
$GPGGA,055200.591,3554.895,N,08202.558,W,0,00,,,M,,M,,*5D
$GPGLL,3554.895,N,08202.558,W,055201.591,V*3C
$GPVTG,2.44,T,,M,86.0,N,159.2,K*63
$GPRMC,055203.591,V,3554.894,N,08202.560,W,98.2,2.45,220521,,E*40
$GPGGA,055204.591,3554.894,N,08202.560,W,0,00,,,M,,M,,*53
$GPGLL,3554.894,N,08202.560,W,055205.591,V*32
$GPVTG,2.45,T,,M,98.2,N,181.8,K*60
$GPRMC,055207.591,V,3554.892,N,08202.561,W,96.1,2.37,220521,,E*4B
$GPGGA,055208.591,3554.892,N,08202.561,W,0,00,,,M,,M,,*58
$GPGLL,3554.892,N,08202.561,W,055209.591,V*39
$GPVTG,2.37,T,,M,96.1,N,177.9,K*60
$GPRMC,055211.591,V,3554.891,N,08202.562,W,86.9,2.45,220521,,E*40
$GPGGA,055212.591,3554.891,N,08202.562,W,0,00,,,M,,M,,*53
$GPGLL,3554.891,N,08202.562,W,055213.591,V*32
$GPVTG,2.45,T,,M,86.9,N,160.9,K*6A
$GPRMC,055215.591,V,3554.890,N,08202.563,W,41.2,2.46,220521,,E*47
$GPGGA,055216.591,3554.890,N,08202.563,W,0,00,,,M,,M,,*57
$GPGLL,3554.890,N,08202.563,W,055217.591,V*36
$GPVTG,2.46,T,,M,41.2,N,76.3,K*55
$GPRMC,055219.591,V,3554.888,N,08202.564,W,58.2,2.46,220521,,E*4D
$GPGGA,055220.591,3554.888,N,08202.564,W,0,00,,,M,,M,,*5C
$GPGLL,3554.888,N,08202.564,W,055221.591,V*3D
$GPVTG,2.46,T,,M,58.2,N,107.7,K*6E
$GPRMC,055223.591,V,3554.887,N,08202.566,W,49.8,2.53,220521,,E*47
$GPGGA,055224.591,3554.887,N,08202.566,W,0,00,,,M,,M,,*55
$GPGLL,3554.887,N,08202.566,W,055225.591,V*34
$GPVTG,2.53,T,,M,49.8,N,92.2,K*58
$GPRMC,055227.591,V,3554.886,N,08202.567,W,68.9,2.48,220521,,E*4B
$GPGGA,055228.591,3554.886,N,08202.567,W,0,00,,,M,,M,,*59
$GPGLL,3554.886,N,08202.567,W,055229.591,V*38
$GPVTG,2.48,T,,M,68.9,N,127.5,K*68
$GPRMC,055231.591,V,3554.884,N,08202.568,W,92.3,2.55,220521,,E*42
$GPGGA,055232.591,3554.884,N,08202.568,W,0,00,,,M,,M,,*5F
$GPGLL,3554.884,N,08202.568,W,055233.591,V*3E
$GPVTG,2.55,T,,M,92.3,N,170.9,K*65
$GPRMC,055235.591,V,3554.883,N,08202.569,W,80.3,2.46,220521,,E*41
$GPGGA,055236.591,3554.883,N,08202.569,W,0,00,,,M,,M,,*5D
$GPGLL,3554.883,N,08202.569,W,055237.591,V*3C
$GPVTG,2.46,T,,M,80.3,N,148.8,K*6E
$GPRMC,055239.591,V,3554.882,N,08202.570,W,91.7,2.38,220521,,E*49
$GPGGA,055240.591,3554.882,N,08202.570,W,0,00,,,M,,M,,*55
$GPGLL,3554.882,N,08202.570,W,055241.591,V*34
$GPVTG,2.38,T,,M,91.7,N,169.7,K*6F
$GPRMC,055243.591,V,3554.880,N,08202.571,W,35.0,2.36,220521,,E*40
$GPGGA,055244.591,3554.880,N,08202.571,W,0,00,,,M,,M,,*52
$GPGLL,3554.880,N,08202.571,W,055245.591,V*33
$GPVTG,2.36,T,,M,35.0,N,64.8,K*5B
$GPRMC,055247.591,V,3554.879,N,08202.572,W,86.8,2.45,220521,,E*45
$GPGGA,055248.591,3554.879,N,08202.572,W,0,00,,,M,,M,,*5B
$GPGLL,3554.879,N,08202.572,W,055249.591,V*3A
$GPVTG,2.45,T,,M,86.8,N,160.8,K*6A
$GPRMC,055251.591,V,3554.877,N,08202.573,W,29.7,2.38,220521,,E*4D
$GPGGA,055252.591,3554.877,N,08202.573,W,0,00,,,M,,M,,*5F
$GPGLL,3554.877,N,08202.573,W,055253.591,V*3E
$GPVTG,2.38,T,,M,29.7,N,55.0,K*55
$GPRMC,055255.591,V,3554.876,N,08202.575,W,79.4,2.48,220521,,E*4F
$GPGGA,055256.591,3554.876,N,08202.575,W,0,00,,,M,,M,,*5C
$GPGLL,3554.876,N,08202.575,W,055257.591,V*3D
$GPVTG,2.48,T,,M,79.4,N,147.1,K*67
$GPRMC,055259.591,V,3554.875,N,08202.576,W,11.5,2.55,220521,,E*40
$GPGGA,055300.591,3554.875,N,08202.576,W,0,00,,,M,,M,,*5E
$GPGLL,3554.875,N,08202.576,W,055301.591,V*3F
$GPVTG,2.55,T,,M,11.5,N,21.3,K*57
$GPRMC,055303.591,V,3554.874,N,08202.577,W,76.4,2.50,220521,,E*4B
$GPGGA,055304.591,3554.874,N,08202.577,W,0,00,,,M,,M,,*5A
$GPGLL,3554.874,N,08202.577,W,055305.591,V*3B
$GPVTG,2.50,T,,M,76.4,N,141.5,K*63
$GPRMC,055307.591,V,3554.873,N,08202.579,W,8.7,2.86,220521,,E*77
$GPGGA,055308.591,3554.873,N,08202.579,W,0,00,,,M,,M,,*5F
$GPGLL,3554.873,N,08202.579,W,055309.591,V*3E
$GPVTG,2.86,T,,M,8.7,N,16.2,K*66
$GPRMC,055311.591,V,3554.872,N,08202.581,W,88.5,2.77,220521,,E*42
$GPGGA,055312.591,3554.872,N,08202.581,W,0,00,,,M,,M,,*52
$GPGLL,3554.872,N,08202.581,W,055313.591,V*33
$GPVTG,2.77,T,,M,88.5,N,163.9,K*6A
$GPRMC,055315.591,V,3554.872,N,08202.582,W,39.2,2.67,220521,,E*49
$GPGGA,055316.591,3554.872,N,08202.582,W,0,00,,,M,,M,,*55
$GPGLL,3554.872,N,08202.582,W,055317.591,V*34
$GPVTG,2.67,T,,M,39.2,N,72.5,K*5B
$GPRMC,055319.591,V,3554.871,N,08202.584,W,28.7,2.58,220521,,E*49
$GPGGA,055320.591,3554.871,N,08202.584,W,0,00,,,M,,M,,*55
$GPGLL,3554.871,N,08202.584,W,055321.591,V*34
$GPVTG,2.58,T,,M,28.7,N,53.2,K*56
$GPRMC,055323.591,V,3554.870,N,08202.585,W,64.9,2.63,220521,,E*4E
$GPGGA,055324.591,3554.870,N,08202.585,W,0,00,,,M,,M,,*51
$GPGLL,3554.870,N,08202.585,W,055325.591,V*30
$GPVTG,2.63,T,,M,64.9,N,120.2,K*6D
$GPRMC,055327.591,V,3554.869,N,08202.587,W,13.0,2.71,220521,,E*4A
$GPGGA,055328.591,3554.869,N,08202.587,W,0,00,,,M,,M,,*57
$GPGLL,3554.869,N,08202.587,W,055329.591,V*36
$GPVTG,2.71,T,,M,13.0,N,24.1,K*51
$GPRMC,055331.591,V,3554.868,N,08202.588,W,72.4,2.69,220521,,E*49
$GPGGA,055332.591,3554.868,N,08202.588,W,0,00,,,M,,M,,*52
$GPGLL,3554.868,N,08202.588,W,055333.591,V*33
$GPVTG,2.69,T,,M,72.4,N,134.0,K*6A
$GPRMC,055335.591,V,3554.867,N,08202.590,W,99.9,2.66,220521,,E*4C
$GPGGA,055336.591,3554.867,N,08202.590,W,0,00,,,M,,M,,*50
$GPGLL,3554.867,N,08202.590,W,055337.591,V*31
$GPVTG,2.66,T,,M,99.9,N,184.9,K*6F
$GPRMC,055339.591,V,3554.866,N,08202.592,W,95.2,2.72,220521,,E*41
$GPGGA,055340.591,3554.866,N,08202.592,W,0,00,,,M,,M,,*52
$GPGLL,3554.866,N,08202.592,W,055341.591,V*33
$GPVTG,2.72,T,,M,95.2,N,176.3,K*6A
$GPRMC,055343.591,V,3554.865,N,08202.593,W,5.2,2.65,220521,,E*71
$GPGGA,055344.591,3554.865,N,08202.593,W,0,00,,,M,,M,,*54
$GPGLL,3554.865,N,08202.593,W,055345.591,V*35
$GPVTG,2.65,T,,M,5.2,N,9.5,K*5A
$GPRMC,055347.591,V,3554.864,N,08202.595,W,12.6,2.72,220521,,E*46
$GPGGA,055348.591,3554.864,N,08202.595,W,0,00,,,M,,M,,*5F
$GPGLL,3554.864,N,08202.595,W,055349.591,V*3E
$GPVTG,2.72,T,,M,12.6,N,23.4,K*57
$GPRMC,055351.591,V,3554.864,N,08202.597,W,52.1,2.78,220521,,E*4A
$GPGGA,055352.591,3554.864,N,08202.597,W,0,00,,,M,,M,,*56
$GPGLL,3554.864,N,08202.597,W,055353.591,V*37
$GPVTG,2.78,T,,M,52.1,N,96.4,K*50
$GPRMC,055355.591,V,3554.863,N,08202.598,W,42.0,2.79,220521,,E*47
$GPGGA,055356.591,3554.863,N,08202.598,W,0,00,,,M,,M,,*5A
$GPGLL,3554.863,N,08202.598,W,055357.591,V*3B
$GPVTG,2.79,T,,M,42.0,N,77.9,K*53
$GPRMC,055359.591,V,3554.863,N,08202.600,W,91.6,2.93,220521,,E*45
$GPGGA,055400.591,3554.863,N,08202.600,W,0,00,,,M,,M,,*5C
$GPGLL,3554.863,N,08202.600,W,055401.591,V*3D
$GPVTG,2.93,T,,M,91.6,N,169.7,K*6F
$GPRMC,055403.591,V,3554.863,N,08202.602,W,62.6,2.90,220521,,E*40
$GPGGA,055404.591,3554.863,N,08202.602,W,0,00,,,M,,M,,*5A
$GPGLL,3554.863,N,08202.602,W,055405.591,V*3B
$GPVTG,2.90,T,,M,62.6,N,116.0,K*6F
$GPRMC,055407.591,V,3554.863,N,08202.604,W,55.9,2.95,220521,,E*4C
$GPGGA,055408.591,3554.863,N,08202.604,W,0,00,,,M,,M,,*50
$GPGLL,3554.863,N,08202.604,W,055409.591,V*31
$GPVTG,2.95,T,,M,55.9,N,103.5,K*60
$GPRMC,055411.591,V,3554.863,N,08202.605,W,80.9,3.00,220521,,E*4F
$GPGGA,055412.591,3554.863,N,08202.605,W,0,00,,,M,,M,,*5A
$GPGLL,3554.863,N,08202.605,W,055413.591,V*3B
$GPVTG,3.00,T,,M,80.9,N,149.8,K*66
$GPRMC,055415.591,V,3554.863,N,08202.607,W,23.3,3.03,220521,,E*49
$GPGGA,055416.591,3554.863,N,08202.607,W,0,00,,,M,,M,,*5C
$GPGLL,3554.863,N,08202.607,W,055417.591,V*3D
$GPVTG,3.03,T,,M,23.3,N,43.2,K*57
$GPRMC,055419.591,V,3554.863,N,08202.609,W,22.1,3.02,220521,,E*49
$GPGGA,055420.591,3554.863,N,08202.609,W,0,00,,,M,,M,,*57
$GPGLL,3554.863,N,08202.609,W,055421.591,V*36
$GPVTG,3.02,T,,M,22.1,N,41.0,K*55
$GPRMC,055423.591,V,3554.863,N,08202.611,W,68.0,3.04,220521,,E*40
$GPGGA,055424.591,3554.863,N,08202.611,W,0,00,,,M,,M,,*5A
$GPGLL,3554.863,N,08202.611,W,055425.591,V*3B
$GPVTG,3.04,T,,M,68.0,N,126.0,K*6C
$GPRMC,055427.591,V,3554.863,N,08202.613,W,49.4,3.09,220521,,E*4C
$GPGGA,055428.591,3554.863,N,08202.613,W,0,00,,,M,,M,,*54
$GPGLL,3554.863,N,08202.613,W,055429.591,V*35
$GPVTG,3.09,T,,M,49.4,N,91.5,K*5E
$GPRMC,055431.591,V,3554.863,N,08202.614,W,12.8,3.02,220521,,E*45
$GPGGA,055432.591,3554.863,N,08202.614,W,0,00,,,M,,M,,*58
$GPGLL,3554.863,N,08202.614,W,055433.591,V*39
$GPVTG,3.02,T,,M,12.8,N,23.7,K*5C
$GPRMC,055435.591,V,3554.863,N,08202.616,W,41.0,2.93,220521,,E*44
$GPGGA,055436.591,3554.863,N,08202.616,W,0,00,,,M,,M,,*5E
$GPGLL,3554.863,N,08202.616,W,055437.591,V*3F
$GPVTG,2.93,T,,M,41.0,N,75.9,K*56
$GPRMC,055439.591,V,3554.863,N,08202.618,W,8.8,2.94,220521,,E*74
$GPGGA,055440.591,3554.863,N,08202.618,W,0,00,,,M,,M,,*51
$GPGLL,3554.863,N,08202.618,W,055441.591,V*30
$GPVTG,2.94,T,,M,8.8,N,16.3,K*6B
$GPRMC,055443.591,V,3554.863,N,08202.620,W,31.0,2.93,220521,,E*47
$GPGGA,055444.591,3554.863,N,08202.620,W,0,00,,,M,,M,,*5E
$GPGLL,3554.863,N,08202.620,W,055445.591,V*3F
$GPVTG,2.93,T,,M,31.0,N,57.4,K*5C
$GPRMC,055447.591,V,3554.862,N,08202.621,W,41.0,2.87,220521,,E*41
$GPGGA,055448.591,3554.862,N,08202.621,W,0,00,,,M,,M,,*52
$GPGLL,3554.862,N,08202.621,W,055449.591,V*33
$GPVTG,2.87,T,,M,41.0,N,76.0,K*59
$GPRMC,055451.591,V,3554.862,N,08202.623,W,94.5,2.89,220521,,E*47
$GPGGA,055452.591,3554.862,N,08202.623,W,0,00,,,M,,M,,*5B
$GPGLL,3554.862,N,08202.623,W,055453.591,V*3A
$GPVTG,2.89,T,,M,94.5,N,175.1,K*69
$GPRMC,055455.591,V,3554.862,N,08202.625,W,78.2,2.95,220521,,E*4D
$GPGGA,055456.591,3554.862,N,08202.625,W,0,00,,,M,,M,,*59
$GPGLL,3554.862,N,08202.625,W,055457.591,V*38
$GPVTG,2.95,T,,M,78.2,N,144.8,K*6A
$GPRMC,055459.591,V,3554.861,N,08202.626,W,95.0,2.60,220521,,E*4A
$GPGGA,055500.591,3554.861,N,08202.626,W,0,00,,,M,,M,,*5B
$GPGLL,3554.861,N,08202.626,W,055501.591,V*3A
$GPVTG,2.60,T,,M,95.0,N,176.0,K*68
$GPRMC,055503.591,V,3554.860,N,08202.628,W,13.4,2.59,220521,,E*4B
$GPGGA,055504.591,3554.860,N,08202.628,W,0,00,,,M,,M,,*50
$GPGLL,3554.860,N,08202.628,W,055505.591,V*31
$GPVTG,2.59,T,,M,13.4,N,24.8,K*56
$GPRMC,055507.591,V,3554.859,N,08202.629,W,79.1,2.56,220521,,E*42
$GPGGA,055508.591,3554.859,N,08202.629,W,0,00,,,M,,M,,*57
$GPGLL,3554.859,N,08202.629,W,055509.591,V*36
$GPVTG,2.56,T,,M,79.1,N,146.6,K*6B
$GPRMC,055511.591,V,3554.858,N,08202.631,W,51.8,2.66,220521,,E*4D
$GPGGA,055512.591,3554.858,N,08202.631,W,0,00,,,M,,M,,*54
$GPGLL,3554.858,N,08202.631,W,055513.591,V*35
$GPVTG,2.66,T,,M,51.8,N,96.0,K*51
$GPRMC,055515.591,V,3554.857,N,08202.632,W,17.8,2.61,220521,,E*40
$GPGGA,055516.591,3554.857,N,08202.632,W,0,00,,,M,,M,,*5C
$GPGLL,3554.857,N,08202.632,W,055517.591,V*3D
$GPVTG,2.61,T,,M,17.8,N,33.0,K*5B
$GPRMC,055519.591,V,3554.856,N,08202.634,W,30.7,2.72,220521,,E*43
$GPGGA,055520.591,3554.856,N,08202.634,W,0,00,,,M,,M,,*5E
$GPGLL,3554.856,N,08202.634,W,055521.591,V*3F
$GPVTG,2.72,T,,M,30.7,N,56.9,K*59
$GPRMC,055523.591,V,3554.855,N,08202.636,W,9.0,2.64,220521,,E*71
$GPGGA,055524.591,3554.855,N,08202.636,W,0,00,,,M,,M,,*5B
$GPGLL,3554.855,N,08202.636,W,055525.591,V*3A
$GPVTG,2.64,T,,M,9.0,N,16.7,K*69
$GPRMC,055527.591,V,3554.855,N,08202.637,W,74.0,2.97,220521,,E*42
$GPGGA,055528.591,3554.855,N,08202.637,W,0,00,,,M,,M,,*56
$GPGLL,3554.855,N,08202.637,W,055529.591,V*37
$GPVTG,2.97,T,,M,74.0,N,137.0,K*6A
$GPRMC,055531.591,V,3554.855,N,08202.639,W,41.8,3.04,220521,,E*4E
$GPGGA,055532.591,3554.855,N,08202.639,W,0,00,,,M,,M,,*53
$GPGLL,3554.855,N,08202.639,W,055533.591,V*32
$GPVTG,3.04,T,,M,41.8,N,77.5,K*5F
$GPRMC,055535.591,V,3554.856,N,08202.640,W,76.3,3.48,220521,,E*40
$GPGGA,055536.591,3554.856,N,08202.640,W,0,00,,,M,,M,,*5A
$GPGLL,3554.856,N,08202.640,W,055537.591,V*3B
$GPVTG,3.48,T,,M,76.3,N,141.2,K*6B
$GPRMC,055539.591,V,3554.857,N,08202.642,W,56.8,3.49,220521,,E*47
$GPGGA,055540.591,3554.857,N,08202.642,W,0,00,,,M,,M,,*58
$GPGLL,3554.857,N,08202.642,W,055541.591,V*39
$GPVTG,3.49,T,,M,56.8,N,105.3,K*62
$GPRMC,055543.591,V,3554.859,N,08202.643,W,48.3,3.53,220521,,E*4A
$GPGGA,055544.591,3554.859,N,08202.643,W,0,00,,,M,,M,,*53
$GPGLL,3554.859,N,08202.643,W,055545.591,V*32
$GPVTG,3.53,T,,M,48.3,N,89.5,K*5E
$GPRMC,055547.591,V,3554.860,N,08202.644,W,16.6,3.45,220521,,E*4A
$GPGGA,055548.591,3554.860,N,08202.644,W,0,00,,,M,,M,,*52
$GPGLL,3554.860,N,08202.644,W,055549.591,V*33
$GPVTG,3.45,T,,M,16.6,N,30.7,K*57
$GPRMC,055551.591,V,3554.861,N,08202.646,W,25.3,3.39,220521,,E*40
$GPGGA,055552.591,3554.861,N,08202.646,W,0,00,,,M,,M,,*5A
$GPGLL,3554.861,N,08202.646,W,055553.591,V*3B
$GPVTG,3.39,T,,M,25.3,N,46.9,K*56
$GPRMC,055555.591,V,3554.862,N,08202.647,W,19.9,3.28,220521,,E*43
$GPGGA,055556.591,3554.862,N,08202.647,W,0,00,,,M,,M,,*5C
$GPGLL,3554.862,N,08202.647,W,055557.591,V*3D
$GPVTG,3.28,T,,M,19.9,N,36.9,K*54
